[
    {
        "istat":100001,
        "comune":"Cantagallo",
        "regione":"Toscana",
        "provincia":"PO",
        "prefisso":574,
        "cod_fisco":"B626",
        "superficie":94.93,
        "num_residenti":3114,
        "lng":11.10781011,
        "lat":44.02826833,
        "region_lat":43.5592500265,
        "region_lng":11.0052396957,
        "country_lat":43.3868261599,
        "country_lng":11.5102816457
    },
    {
        "istat":100002,
        "comune":"Carmignano",
        "regione":"Toscana",
        "provincia":"PO",
        "prefisso":55,
        "cod_fisco":"B794",
        "superficie":38.59,
        "num_residenti":14118,
        "lng":11.01834807,
        "lat":43.81383287,
        "region_lat":43.5592500265,
        "region_lng":11.0052396957,
        "country_lat":43.3868261599,
        "country_lng":11.5102816457
    },
    {
        "istat":100003,
        "comune":"Montemurlo",
        "regione":"Toscana",
        "provincia":"PO",
        "prefisso":574,
        "cod_fisco":"F572",
        "superficie":30.66,
        "num_residenti":18198,
        "lng":11.0371372,
        "lat":43.92690099,
        "region_lat":43.5592500265,
        "region_lng":11.0052396957,
        "country_lat":43.3868261599,
        "country_lng":11.5102816457
    },
    {
        "istat":100004,
        "comune":"Poggio a Caiano",
        "regione":"Toscana",
        "provincia":"PO",
        "prefisso":55,
        "cod_fisco":"G754",
        "superficie":5.97,
        "num_residenti":9804,
        "lng":11.05585446,
        "lat":43.81628696,
        "region_lat":43.5592500265,
        "region_lng":11.0052396957,
        "country_lat":43.3868261599,
        "country_lng":11.5102816457
    },
    {
        "istat":100005,
        "comune":"Prato",
        "regione":"Toscana",
        "provincia":"PO",
        "prefisso":574,
        "cod_fisco":"G999",
        "superficie":97.59,
        "num_residenti":187159,
        "lng":11.09703315,
        "lat":43.88062274,
        "region_lat":43.5592500265,
        "region_lng":11.0052396957,
        "country_lat":43.3868261599,
        "country_lng":11.5102816457
    },
    {
        "istat":100006,
        "comune":"Vaiano",
        "regione":"Toscana",
        "provincia":"PO",
        "prefisso":574,
        "cod_fisco":"L537",
        "superficie":34.24,
        "num_residenti":9889,
        "lng":11.12331368,
        "lat":43.96864659,
        "region_lat":43.5592500265,
        "region_lng":11.0052396957,
        "country_lat":43.3868261599,
        "country_lng":11.5102816457
    },
    {
        "istat":100007,
        "comune":"Vernio",
        "regione":"Toscana",
        "provincia":"PO",
        "prefisso":574,
        "cod_fisco":"L775",
        "superficie":63.28,
        "num_residenti":6010,
        "lng":11.15575937,
        "lat":44.05334478,
        "region_lat":43.5592500265,
        "region_lng":11.0052396957,
        "country_lat":43.3868261599,
        "country_lng":11.5102816457
    },
    {
        "istat":10001,
        "comune":"Arenzano",
        "regione":"Liguria",
        "provincia":"GE",
        "prefisso":10,
        "cod_fisco":"A388",
        "superficie":24.57,
        "num_residenti":11613,
        "lng":8.68226057,
        "lat":44.40179322,
        "region_lat":44.1955543562,
        "region_lng":8.5982069303,
        "country_lat":43.3868261599,
        "country_lng":11.5102816457
    },
    {
        "istat":10002,
        "comune":"Avegno",
        "regione":"Liguria",
        "provincia":"GE",
        "prefisso":185,
        "cod_fisco":"A506",
        "superficie":11.03,
        "num_residenti":2546,
        "lng":9.15871776,
        "lat":44.38230695,
        "region_lat":44.1955543562,
        "region_lng":8.5982069303,
        "country_lat":43.3868261599,
        "country_lng":11.5102816457
    },
    {
        "istat":10003,
        "comune":"Bargagli",
        "regione":"Liguria",
        "provincia":"GE",
        "prefisso":10,
        "cod_fisco":"A658",
        "superficie":16.25,
        "num_residenti":2770,
        "lng":9.0883387,
        "lat":44.44464301,
        "region_lat":44.1955543562,
        "region_lng":8.5982069303,
        "country_lat":43.3868261599,
        "country_lng":11.5102816457
    },
    {
        "istat":10004,
        "comune":"Bogliasco",
        "regione":"Liguria",
        "provincia":"GE",
        "prefisso":10,
        "cod_fisco":"A922",
        "superficie":4.36,
        "num_residenti":4456,
        "lng":9.06978128,
        "lat":44.37822158,
        "region_lat":44.1955543562,
        "region_lng":8.5982069303,
        "country_lat":43.3868261599,
        "country_lng":11.5102816457
    },
    {
        "istat":10005,
        "comune":"Borzonasca",
        "regione":"Liguria",
        "provincia":"GE",
        "prefisso":185,
        "cod_fisco":"B067",
        "superficie":79.99,
        "num_residenti":2108,
        "lng":9.38679744,
        "lat":44.42220304,
        "region_lat":44.1955543562,
        "region_lng":8.5982069303,
        "country_lat":43.3868261599,
        "country_lng":11.5102816457
    },
    {
        "istat":10006,
        "comune":"Busalla",
        "regione":"Liguria",
        "provincia":"GE",
        "prefisso":10,
        "cod_fisco":"B282",
        "superficie":17.12,
        "num_residenti":5709,
        "lng":8.94498048,
        "lat":44.57080117,
        "region_lat":44.1955543562,
        "region_lng":8.5982069303,
        "country_lat":43.3868261599,
        "country_lng":11.5102816457
    },
    {
        "istat":10007,
        "comune":"Camogli",
        "regione":"Liguria",
        "provincia":"GE",
        "prefisso":185,
        "cod_fisco":"B490",
        "superficie":9.88,
        "num_residenti":5399,
        "lng":9.15713844,
        "lat":44.34680493,
        "region_lat":44.1955543562,
        "region_lng":8.5982069303,
        "country_lat":43.3868261599,
        "country_lng":11.5102816457
    },
    {
        "istat":10008,
        "comune":"Campo Ligure",
        "regione":"Liguria",
        "provincia":"GE",
        "prefisso":10,
        "cod_fisco":"B538",
        "superficie":23.78,
        "num_residenti":3037,
        "lng":8.69762914,
        "lat":44.53838818,
        "region_lat":44.1955543562,
        "region_lng":8.5982069303,
        "country_lat":43.3868261599,
        "country_lng":11.5102816457
    },
    {
        "istat":10009,
        "comune":"Campomorone",
        "regione":"Liguria",
        "provincia":"GE",
        "prefisso":10,
        "cod_fisco":"B551",
        "superficie":26.14,
        "num_residenti":7279,
        "lng":8.89267577,
        "lat":44.5066955,
        "region_lat":44.1955543562,
        "region_lng":8.5982069303,
        "country_lat":43.3868261599,
        "country_lng":11.5102816457
    },
    {
        "istat":1001,
        "comune":"Agliè",
        "regione":"Piemonte",
        "provincia":"TO",
        "prefisso":124,
        "cod_fisco":"A074",
        "superficie":13.28,
        "num_residenti":2669,
        "lng":7.7686,
        "lat":45.36343304,
        "region_lat":45.0979469594,
        "region_lng":8.0435281102,
        "country_lat":43.3868261599,
        "country_lng":11.5102816457
    },
    {
        "istat":10010,
        "comune":"Carasco",
        "regione":"Liguria",
        "provincia":"GE",
        "prefisso":185,
        "cod_fisco":"B726",
        "superficie":8.61,
        "num_residenti":3704,
        "lng":9.34404046,
        "lat":44.35131469,
        "region_lat":44.1955543562,
        "region_lng":8.5982069303,
        "country_lat":43.3868261599,
        "country_lng":11.5102816457
    },
    {
        "istat":10011,
        "comune":"Casarza Ligure",
        "regione":"Liguria",
        "provincia":"GE",
        "prefisso":185,
        "cod_fisco":"B939",
        "superficie":27.36,
        "num_residenti":6756,
        "lng":9.45345696,
        "lat":44.27462061,
        "region_lat":44.1955543562,
        "region_lng":8.5982069303,
        "country_lat":43.3868261599,
        "country_lng":11.5102816457
    },
    {
        "istat":10012,
        "comune":"Casella",
        "regione":"Liguria",
        "provincia":"GE",
        "prefisso":10,
        "cod_fisco":"B956",
        "superficie":7.78,
        "num_residenti":3234,
        "lng":8.99919877,
        "lat":44.53499584,
        "region_lat":44.1955543562,
        "region_lng":8.5982069303,
        "country_lat":43.3868261599,
        "country_lng":11.5102816457
    },
    {
        "istat":10013,
        "comune":"Castiglione Chiavarese",
        "regione":"Liguria",
        "provincia":"GE",
        "prefisso":185,
        "cod_fisco":"C302",
        "superficie":30.15,
        "num_residenti":1620,
        "lng":9.51354812,
        "lat":44.27471107,
        "region_lat":44.1955543562,
        "region_lng":8.5982069303,
        "country_lat":43.3868261599,
        "country_lng":11.5102816457
    },
    {
        "istat":10014,
        "comune":"Ceranesi",
        "regione":"Liguria",
        "provincia":"GE",
        "prefisso":10,
        "cod_fisco":"C481",
        "superficie":30.92,
        "num_residenti":3965,
        "lng":8.89459705,
        "lat":44.50393511,
        "region_lat":44.1955543562,
        "region_lng":8.5982069303,
        "country_lat":43.3868261599,
        "country_lng":11.5102816457
    },
    {
        "istat":10015,
        "comune":"Chiavari",
        "regione":"Liguria",
        "provincia":"GE",
        "prefisso":185,
        "cod_fisco":"C621",
        "superficie":12.46,
        "num_residenti":27259,
        "lng":9.32401708,
        "lat":44.31671072,
        "region_lat":44.1955543562,
        "region_lng":8.5982069303,
        "country_lat":43.3868261599,
        "country_lng":11.5102816457
    },
    {
        "istat":10016,
        "comune":"Cicagna",
        "regione":"Liguria",
        "provincia":"GE",
        "prefisso":185,
        "cod_fisco":"C673",
        "superficie":11.54,
        "num_residenti":2548,
        "lng":9.23594891,
        "lat":44.4086,
        "region_lat":44.1955543562,
        "region_lng":8.5982069303,
        "country_lat":43.3868261599,
        "country_lng":11.5102816457
    },
    {
        "istat":10017,
        "comune":"Cogoleto",
        "regione":"Liguria",
        "provincia":"GE",
        "prefisso":10,
        "cod_fisco":"C823",
        "superficie":20.34,
        "num_residenti":9141,
        "lng":8.64632983,
        "lat":44.38946889,
        "region_lat":44.1955543562,
        "region_lng":8.5982069303,
        "country_lat":43.3868261599,
        "country_lng":11.5102816457
    },
    {
        "istat":10018,
        "comune":"Cogorno",
        "regione":"Liguria",
        "provincia":"GE",
        "prefisso":185,
        "cod_fisco":"C826",
        "superficie":9.06,
        "num_residenti":5625,
        "lng":9.35217274,
        "lat":44.32864607,
        "region_lat":44.1955543562,
        "region_lng":8.5982069303,
        "country_lat":43.3868261599,
        "country_lng":11.5102816457
    },
    {
        "istat":10019,
        "comune":"Coreglia Ligure",
        "regione":"Liguria",
        "provincia":"GE",
        "prefisso":185,
        "cod_fisco":"C995",
        "superficie":8.0,
        "num_residenti":279,
        "lng":9.26698739,
        "lat":44.3920448,
        "region_lat":44.1955543562,
        "region_lng":8.5982069303,
        "country_lat":43.3868261599,
        "country_lng":11.5102816457
    },
    {
        "istat":1002,
        "comune":"Airasca",
        "regione":"Piemonte",
        "provincia":"TO",
        "prefisso":11,
        "cod_fisco":"A109",
        "superficie":15.7,
        "num_residenti":3842,
        "lng":7.48443104,
        "lat":44.91688598,
        "region_lat":45.0979469594,
        "region_lng":8.0435281102,
        "country_lat":43.3868261599,
        "country_lng":11.5102816457
    },
    {
        "istat":10020,
        "comune":"Crocefieschi",
        "regione":"Liguria",
        "provincia":"GE",
        "prefisso":10,
        "cod_fisco":"D175",
        "superficie":11.56,
        "num_residenti":548,
        "lng":9.02281748,
        "lat":44.58482451,
        "region_lat":44.1955543562,
        "region_lng":8.5982069303,
        "country_lat":43.3868261599,
        "country_lng":11.5102816457
    },
    {
        "istat":10021,
        "comune":"Davagna",
        "regione":"Liguria",
        "provincia":"GE",
        "prefisso":10,
        "cod_fisco":"D255",
        "superficie":22.1,
        "num_residenti":1924,
        "lng":9.08668974,
        "lat":44.46474451,
        "region_lat":44.1955543562,
        "region_lng":8.5982069303,
        "country_lat":43.3868261599,
        "country_lng":11.5102816457
    },
    {
        "istat":10022,
        "comune":"Fascia",
        "regione":"Liguria",
        "provincia":"GE",
        "prefisso":10,
        "cod_fisco":"D509",
        "superficie":11.03,
        "num_residenti":96,
        "lng":9.23626672,
        "lat":44.56449009,
        "region_lat":44.1955543562,
        "region_lng":8.5982069303,
        "country_lat":43.3868261599,
        "country_lng":11.5102816457
    },
    {
        "istat":10023,
        "comune":"Favale di Malvaro",
        "regione":"Liguria",
        "provincia":"GE",
        "prefisso":185,
        "cod_fisco":"D512",
        "superficie":16.66,
        "num_residenti":482,
        "lng":9.25802513,
        "lat":44.45203897,
        "region_lat":44.1955543562,
        "region_lng":8.5982069303,
        "country_lat":43.3868261599,
        "country_lng":11.5102816457
    },
    {
        "istat":10024,
        "comune":"Fontanigorda",
        "regione":"Liguria",
        "provincia":"GE",
        "prefisso":10,
        "cod_fisco":"D677",
        "superficie":16.62,
        "num_residenti":272,
        "lng":9.30494807,
        "lat":44.54655632,
        "region_lat":44.1955543562,
        "region_lng":8.5982069303,
        "country_lat":43.3868261599,
        "country_lng":11.5102816457
    },
    {
        "istat":10025,
        "comune":"Genova",
        "regione":"Liguria",
        "provincia":"GE",
        "prefisso":10,
        "cod_fisco":"D969",
        "superficie":243.6,
        "num_residenti":582320,
        "lng":8.9326992,
        "lat":44.41149314,
        "region_lat":44.1955543562,
        "region_lng":8.5982069303,
        "country_lat":43.3868261599,
        "country_lng":11.5102816457
    },
    {
        "istat":10026,
        "comune":"Gorreto",
        "regione":"Liguria",
        "provincia":"GE",
        "prefisso":10,
        "cod_fisco":"E109",
        "superficie":18.53,
        "num_residenti":105,
        "lng":9.29209495,
        "lat":44.604969,
        "region_lat":44.1955543562,
        "region_lng":8.5982069303,
        "country_lat":43.3868261599,
        "country_lng":11.5102816457
    },
    {
        "istat":10027,
        "comune":"Isola del Cantone",
        "regione":"Liguria",
        "provincia":"GE",
        "prefisso":10,
        "cod_fisco":"E341",
        "superficie":47.8,
        "num_residenti":1542,
        "lng":8.95597042,
        "lat":44.64584548,
        "region_lat":44.1955543562,
        "region_lng":8.5982069303,
        "country_lat":43.3868261599,
        "country_lng":11.5102816457
    },
    {
        "istat":10028,
        "comune":"Lavagna",
        "regione":"Liguria",
        "provincia":"GE",
        "prefisso":185,
        "cod_fisco":"E488",
        "superficie":13.87,
        "num_residenti":12464,
        "lng":9.34403674,
        "lat":44.30715764,
        "region_lat":44.1955543562,
        "region_lng":8.5982069303,
        "country_lat":43.3868261599,
        "country_lng":11.5102816457
    },
    {
        "istat":10029,
        "comune":"Leivi",
        "regione":"Liguria",
        "provincia":"GE",
        "prefisso":185,
        "cod_fisco":"E519",
        "superficie":9.87,
        "num_residenti":2369,
        "lng":9.3182164,
        "lat":44.34552337,
        "region_lat":44.1955543562,
        "region_lng":8.5982069303,
        "country_lat":43.3868261599,
        "country_lng":11.5102816457
    },
    {
        "istat":1003,
        "comune":"Ala di Stura",
        "regione":"Piemonte",
        "provincia":"TO",
        "prefisso":123,
        "cod_fisco":"A117",
        "superficie":46.09,
        "num_residenti":469,
        "lng":7.30434392,
        "lat":45.31511014,
        "region_lat":45.0979469594,
        "region_lng":8.0435281102,
        "country_lat":43.3868261599,
        "country_lng":11.5102816457
    },
    {
        "istat":10030,
        "comune":"Lorsica",
        "regione":"Liguria",
        "provincia":"GE",
        "prefisso":185,
        "cod_fisco":"E695",
        "superficie":17.78,
        "num_residenti":507,
        "lng":9.27433441,
        "lat":44.43234464,
        "region_lat":44.1955543562,
        "region_lng":8.5982069303,
        "country_lat":43.3868261599,
        "country_lng":11.5102816457
    },
    {
        "istat":10031,
        "comune":"Lumarzo",
        "regione":"Liguria",
        "provincia":"GE",
        "prefisso":185,
        "cod_fisco":"E737",
        "superficie":25.48,
        "num_residenti":1558,
        "lng":9.13732081,
        "lat":44.44356861,
        "region_lat":44.1955543562,
        "region_lng":8.5982069303,
        "country_lat":43.3868261599,
        "country_lng":11.5102816457
    },
    {
        "istat":10032,
        "comune":"Masone",
        "regione":"Liguria",
        "provincia":"GE",
        "prefisso":10,
        "cod_fisco":"F020",
        "superficie":29.82,
        "num_residenti":3750,
        "lng":8.71169286,
        "lat":44.50363621,
        "region_lat":44.1955543562,
        "region_lng":8.5982069303,
        "country_lat":43.3868261599,
        "country_lng":11.5102816457
    },
    {
        "istat":10033,
        "comune":"Mele",
        "regione":"Liguria",
        "provincia":"GE",
        "prefisso":10,
        "cod_fisco":"F098",
        "superficie":16.93,
        "num_residenti":2693,
        "lng":8.74802865,
        "lat":44.44540292,
        "region_lat":44.1955543562,
        "region_lng":8.5982069303,
        "country_lat":43.3868261599,
        "country_lng":11.5102816457
    },
    {
        "istat":10034,
        "comune":"Mezzanego",
        "regione":"Liguria",
        "provincia":"GE",
        "prefisso":185,
        "cod_fisco":"F173",
        "superficie":28.81,
        "num_residenti":1636,
        "lng":9.37690562,
        "lat":44.3836974,
        "region_lat":44.1955543562,
        "region_lng":8.5982069303,
        "country_lat":43.3868261599,
        "country_lng":11.5102816457
    },
    {
        "istat":10035,
        "comune":"Mignanego",
        "regione":"Liguria",
        "provincia":"GE",
        "prefisso":10,
        "cod_fisco":"F202",
        "superficie":18.37,
        "num_residenti":3727,
        "lng":8.91468328,
        "lat":44.52764357,
        "region_lat":44.1955543562,
        "region_lng":8.5982069303,
        "country_lat":43.3868261599,
        "country_lng":11.5102816457
    },
    {
        "istat":10036,
        "comune":"Moconesi",
        "regione":"Liguria",
        "provincia":"GE",
        "prefisso":185,
        "cod_fisco":"F256",
        "superficie":16.14,
        "num_residenti":2693,
        "lng":9.21234739,
        "lat":44.41952882,
        "region_lat":44.1955543562,
        "region_lng":8.5982069303,
        "country_lat":43.3868261599,
        "country_lng":11.5102816457
    },
    {
        "istat":10037,
        "comune":"Moneglia",
        "regione":"Liguria",
        "provincia":"GE",
        "prefisso":185,
        "cod_fisco":"F354",
        "superficie":15.42,
        "num_residenti":2855,
        "lng":9.49012691,
        "lat":44.23854867,
        "region_lat":44.1955543562,
        "region_lng":8.5982069303,
        "country_lat":43.3868261599,
        "country_lng":11.5102816457
    },
    {
        "istat":10038,
        "comune":"Montebruno",
        "regione":"Liguria",
        "provincia":"GE",
        "prefisso":10,
        "cod_fisco":"F445",
        "superficie":17.54,
        "num_residenti":233,
        "lng":9.24979047,
        "lat":44.5270933,
        "region_lat":44.1955543562,
        "region_lng":8.5982069303,
        "country_lat":43.3868261599,
        "country_lng":11.5102816457
    },
    {
        "istat":10039,
        "comune":"Montoggio",
        "regione":"Liguria",
        "provincia":"GE",
        "prefisso":10,
        "cod_fisco":"F682",
        "superficie":46.33,
        "num_residenti":2044,
        "lng":9.0441989,
        "lat":44.51558055,
        "region_lat":44.1955543562,
        "region_lng":8.5982069303,
        "country_lat":43.3868261599,
        "country_lng":11.5102816457
    },
    {
        "istat":1004,
        "comune":"Albiano d'Ivrea",
        "regione":"Piemonte",
        "provincia":"TO",
        "prefisso":125,
        "cod_fisco":"A157",
        "superficie":11.73,
        "num_residenti":1800,
        "lng":7.94914491,
        "lat":45.43389336,
        "region_lat":45.0979469594,
        "region_lng":8.0435281102,
        "country_lat":43.3868261599,
        "country_lng":11.5102816457
    },
    {
        "istat":10040,
        "comune":"Ne",
        "regione":"Liguria",
        "provincia":"GE",
        "prefisso":185,
        "cod_fisco":"F858",
        "superficie":64.05,
        "num_residenti":2348,
        "lng":9.39842041,
        "lat":44.34436715,
        "region_lat":44.1955543562,
        "region_lng":8.5982069303,
        "country_lat":43.3868261599,
        "country_lng":11.5102816457
    },
    {
        "istat":10041,
        "comune":"Neirone",
        "regione":"Liguria",
        "provincia":"GE",
        "prefisso":185,
        "cod_fisco":"F862",
        "superficie":29.58,
        "num_residenti":954,
        "lng":9.19090098,
        "lat":44.45425495,
        "region_lat":44.1955543562,
        "region_lng":8.5982069303,
        "country_lat":43.3868261599,
        "country_lng":11.5102816457
    },
    {
        "istat":10042,
        "comune":"Orero",
        "regione":"Liguria",
        "provincia":"GE",
        "prefisso":185,
        "cod_fisco":"G093",
        "superficie":15.86,
        "num_residenti":584,
        "lng":9.27460151,
        "lat":44.40723425,
        "region_lat":44.1955543562,
        "region_lng":8.5982069303,
        "country_lat":43.3868261599,
        "country_lng":11.5102816457
    },
    {
        "istat":10043,
        "comune":"Pieve Ligure",
        "regione":"Liguria",
        "provincia":"GE",
        "prefisso":10,
        "cod_fisco":"G646",
        "superficie":3.43,
        "num_residenti":2530,
        "lng":9.08689032,
        "lat":44.37467039,
        "region_lat":44.1955543562,
        "region_lng":8.5982069303,
        "country_lat":43.3868261599,
        "country_lng":11.5102816457
    },
    {
        "istat":10044,
        "comune":"Portofino",
        "regione":"Liguria",
        "provincia":"GE",
        "prefisso":185,
        "cod_fisco":"G913",
        "superficie":2.55,
        "num_residenti":437,
        "lng":9.20722887,
        "lat":44.30409182,
        "region_lat":44.1955543562,
        "region_lng":8.5982069303,
        "country_lat":43.3868261599,
        "country_lng":11.5102816457
    },
    {
        "istat":10045,
        "comune":"Propata",
        "regione":"Liguria",
        "provincia":"GE",
        "prefisso":10,
        "cod_fisco":"H073",
        "superficie":16.8,
        "num_residenti":156,
        "lng":9.18488278,
        "lat":44.56471709,
        "region_lat":44.1955543562,
        "region_lng":8.5982069303,
        "country_lat":43.3868261599,
        "country_lng":11.5102816457
    },
    {
        "istat":10046,
        "comune":"Rapallo",
        "regione":"Liguria",
        "provincia":"GE",
        "prefisso":185,
        "cod_fisco":"H183",
        "superficie":33.63,
        "num_residenti":29214,
        "lng":9.23174684,
        "lat":44.35017452,
        "region_lat":44.1955543562,
        "region_lng":8.5982069303,
        "country_lat":43.3868261599,
        "country_lng":11.5102816457
    },
    {
        "istat":10047,
        "comune":"Recco",
        "regione":"Liguria",
        "provincia":"GE",
        "prefisso":185,
        "cod_fisco":"H212",
        "superficie":9.67,
        "num_residenti":9957,
        "lng":9.14354904,
        "lat":44.36219307,
        "region_lat":44.1955543562,
        "region_lng":8.5982069303,
        "country_lat":43.3868261599,
        "country_lng":11.5102816457
    },
    {
        "istat":10048,
        "comune":"Rezzoaglio",
        "regione":"Liguria",
        "provincia":"GE",
        "prefisso":185,
        "cod_fisco":"H258",
        "superficie":105.2,
        "num_residenti":1048,
        "lng":9.38665818,
        "lat":44.52570666,
        "region_lat":44.1955543562,
        "region_lng":8.5982069303,
        "country_lat":43.3868261599,
        "country_lng":11.5102816457
    },
    {
        "istat":10049,
        "comune":"Ronco Scrivia",
        "regione":"Liguria",
        "provincia":"GE",
        "prefisso":10,
        "cod_fisco":"H536",
        "superficie":30.5,
        "num_residenti":4536,
        "lng":8.95498801,
        "lat":44.60820328,
        "region_lat":44.1955543562,
        "region_lng":8.5982069303,
        "country_lat":43.3868261599,
        "country_lng":11.5102816457
    },
    {
        "istat":1005,
        "comune":"Alice Superiore",
        "regione":"Piemonte",
        "provincia":"TO",
        "prefisso":125,
        "cod_fisco":"A199",
        "superficie":6.95,
        "num_residenti":712,
        "lng":7.77701858,
        "lat":45.4600936,
        "region_lat":45.0979469594,
        "region_lng":8.0435281102,
        "country_lat":43.3868261599,
        "country_lng":11.5102816457
    },
    {
        "istat":10050,
        "comune":"Rondanina",
        "regione":"Liguria",
        "provincia":"GE",
        "prefisso":10,
        "cod_fisco":"H546",
        "superficie":12.63,
        "num_residenti":67,
        "lng":9.21760907,
        "lat":44.5623571,
        "region_lat":44.1955543562,
        "region_lng":8.5982069303,
        "country_lat":43.3868261599,
        "country_lng":11.5102816457
    },
    {
        "istat":10051,
        "comune":"Rossiglione",
        "regione":"Liguria",
        "provincia":"GE",
        "prefisso":10,
        "cod_fisco":"H581",
        "superficie":47.2,
        "num_residenti":2915,
        "lng":8.67053508,
        "lat":44.56211352,
        "region_lat":44.1955543562,
        "region_lng":8.5982069303,
        "country_lat":43.3868261599,
        "country_lng":11.5102816457
    },
    {
        "istat":10052,
        "comune":"Rovegno",
        "regione":"Liguria",
        "provincia":"GE",
        "prefisso":10,
        "cod_fisco":"H599",
        "superficie":45.07,
        "num_residenti":566,
        "lng":9.27867307,
        "lat":44.57711393,
        "region_lat":44.1955543562,
        "region_lng":8.5982069303,
        "country_lat":43.3868261599,
        "country_lng":11.5102816457
    },
    {
        "istat":10053,
        "comune":"San Colombano Certenoli",
        "regione":"Liguria",
        "provincia":"GE",
        "prefisso":185,
        "cod_fisco":"H802",
        "superficie":41.23,
        "num_residenti":2693,
        "lng":9.31312353,
        "lat":44.37173186,
        "region_lat":44.1955543562,
        "region_lng":8.5982069303,
        "country_lat":43.3868261599,
        "country_lng":11.5102816457
    },
    {
        "istat":10054,
        "comune":"Santa Margherita Ligure",
        "regione":"Liguria",
        "provincia":"GE",
        "prefisso":185,
        "cod_fisco":"I225",
        "superficie":9.82,
        "num_residenti":9624,
        "lng":9.20992464,
        "lat":44.33486974,
        "region_lat":44.1955543562,
        "region_lng":8.5982069303,
        "country_lat":43.3868261599,
        "country_lng":11.5102816457
    },
    {
        "istat":10055,
        "comune":"Sant'Olcese",
        "regione":"Liguria",
        "provincia":"GE",
        "prefisso":10,
        "cod_fisco":"I346",
        "superficie":21.92,
        "num_residenti":5927,
        "lng":8.96767968,
        "lat":44.48366578,
        "region_lat":44.1955543562,
        "region_lng":8.5982069303,
        "country_lat":43.3868261599,
        "country_lng":11.5102816457
    },
    {
        "istat":10056,
        "comune":"Santo Stefano d'Aveto",
        "regione":"Liguria",
        "provincia":"GE",
        "prefisso":185,
        "cod_fisco":"I368",
        "superficie":55.26,
        "num_residenti":1189,
        "lng":9.45092663,
        "lat":44.54782889,
        "region_lat":44.1955543562,
        "region_lng":8.5982069303,
        "country_lat":43.3868261599,
        "country_lng":11.5102816457
    },
    {
        "istat":10057,
        "comune":"Savignone",
        "regione":"Liguria",
        "provincia":"GE",
        "prefisso":10,
        "cod_fisco":"I475",
        "superficie":21.78,
        "num_residenti":3216,
        "lng":8.9879556,
        "lat":44.56373567,
        "region_lat":44.1955543562,
        "region_lng":8.5982069303,
        "country_lat":43.3868261599,
        "country_lng":11.5102816457
    },
    {
        "istat":10058,
        "comune":"Serra Riccò",
        "regione":"Liguria",
        "provincia":"GE",
        "prefisso":10,
        "cod_fisco":"I640",
        "superficie":26.15,
        "num_residenti":7882,
        "lng":8.93604499,
        "lat":44.50784963,
        "region_lat":44.1955543562,
        "region_lng":8.5982069303,
        "country_lat":43.3868261599,
        "country_lng":11.5102816457
    },
    {
        "istat":10059,
        "comune":"Sestri Levante",
        "regione":"Liguria",
        "provincia":"GE",
        "prefisso":185,
        "cod_fisco":"I693",
        "superficie":33.49,
        "num_residenti":18543,
        "lng":9.39316235,
        "lat":44.26990054,
        "region_lat":44.1955543562,
        "region_lng":8.5982069303,
        "country_lat":43.3868261599,
        "country_lng":11.5102816457
    },
    {
        "istat":1006,
        "comune":"Almese",
        "regione":"Piemonte",
        "provincia":"TO",
        "prefisso":11,
        "cod_fisco":"A218",
        "superficie":17.91,
        "num_residenti":6377,
        "lng":7.39518194,
        "lat":45.11766321,
        "region_lat":45.0979469594,
        "region_lng":8.0435281102,
        "country_lat":43.3868261599,
        "country_lng":11.5102816457
    },
    {
        "istat":10060,
        "comune":"Sori",
        "regione":"Liguria",
        "provincia":"GE",
        "prefisso":185,
        "cod_fisco":"I852",
        "superficie":13.13,
        "num_residenti":4377,
        "lng":9.10436515,
        "lat":44.37278803,
        "region_lat":44.1955543562,
        "region_lng":8.5982069303,
        "country_lat":43.3868261599,
        "country_lng":11.5102816457
    },
    {
        "istat":10061,
        "comune":"Tiglieto",
        "regione":"Liguria",
        "provincia":"GE",
        "prefisso":10,
        "cod_fisco":"L167",
        "superficie":24.47,
        "num_residenti":560,
        "lng":8.62044541,
        "lat":44.52535713,
        "region_lat":44.1955543562,
        "region_lng":8.5982069303,
        "country_lat":43.3868261599,
        "country_lng":11.5102816457
    },
    {
        "istat":10062,
        "comune":"Torriglia",
        "regione":"Liguria",
        "provincia":"GE",
        "prefisso":10,
        "cod_fisco":"L298",
        "superficie":58.81,
        "num_residenti":2395,
        "lng":9.15777778,
        "lat":44.51901939,
        "region_lat":44.1955543562,
        "region_lng":8.5982069303,
        "country_lat":43.3868261599,
        "country_lng":11.5102816457
    },
    {
        "istat":10063,
        "comune":"Tribogna",
        "regione":"Liguria",
        "provincia":"GE",
        "prefisso":185,
        "cod_fisco":"L416",
        "superficie":7.05,
        "num_residenti":628,
        "lng":9.19559972,
        "lat":44.41627446,
        "region_lat":44.1955543562,
        "region_lng":8.5982069303,
        "country_lat":43.3868261599,
        "country_lng":11.5102816457
    },
    {
        "istat":10064,
        "comune":"Uscio",
        "regione":"Liguria",
        "provincia":"GE",
        "prefisso":185,
        "cod_fisco":"L507",
        "superficie":9.64,
        "num_residenti":2285,
        "lng":9.16328775,
        "lat":44.4132013,
        "region_lat":44.1955543562,
        "region_lng":8.5982069303,
        "country_lat":43.3868261599,
        "country_lng":11.5102816457
    },
    {
        "istat":10065,
        "comune":"Valbrevenna",
        "regione":"Liguria",
        "provincia":"GE",
        "prefisso":10,
        "cod_fisco":"L546",
        "superficie":35.13,
        "num_residenti":817,
        "lng":9.06502603,
        "lat":44.55652959,
        "region_lat":44.1955543562,
        "region_lng":8.5982069303,
        "country_lat":43.3868261599,
        "country_lng":11.5102816457
    },
    {
        "istat":10066,
        "comune":"Vobbia",
        "regione":"Liguria",
        "provincia":"GE",
        "prefisso":10,
        "cod_fisco":"M105",
        "superficie":33.2,
        "num_residenti":453,
        "lng":9.03982341,
        "lat":44.5997666,
        "region_lat":44.1955543562,
        "region_lng":8.5982069303,
        "country_lat":43.3868261599,
        "country_lng":11.5102816457
    },
    {
        "istat":10067,
        "comune":"Zoagli",
        "regione":"Liguria",
        "provincia":"GE",
        "prefisso":185,
        "cod_fisco":"M182",
        "superficie":7.62,
        "num_residenti":2516,
        "lng":9.26724315,
        "lat":44.3370341,
        "region_lat":44.1955543562,
        "region_lng":8.5982069303,
        "country_lat":43.3868261599,
        "country_lng":11.5102816457
    },
    {
        "istat":1007,
        "comune":"Alpette",
        "regione":"Piemonte",
        "provincia":"TO",
        "prefisso":124,
        "cod_fisco":"A221",
        "superficie":5.65,
        "num_residenti":271,
        "lng":7.57859732,
        "lat":45.40998223,
        "region_lat":45.0979469594,
        "region_lng":8.0435281102,
        "country_lat":43.3868261599,
        "country_lng":11.5102816457
    },
    {
        "istat":1008,
        "comune":"Alpignano",
        "regione":"Piemonte",
        "provincia":"TO",
        "prefisso":11,
        "cod_fisco":"A222",
        "superficie":11.95,
        "num_residenti":16993,
        "lng":7.52426733,
        "lat":45.09446973,
        "region_lat":45.0979469594,
        "region_lng":8.0435281102,
        "country_lat":43.3868261599,
        "country_lng":11.5102816457
    },
    {
        "istat":1009,
        "comune":"Andezeno",
        "regione":"Piemonte",
        "provincia":"TO",
        "prefisso":11,
        "cod_fisco":"A275",
        "superficie":7.48,
        "num_residenti":1987,
        "lng":7.86994864,
        "lat":45.03586095,
        "region_lat":45.0979469594,
        "region_lng":8.0435281102,
        "country_lat":43.3868261599,
        "country_lng":11.5102816457
    },
    {
        "istat":1010,
        "comune":"Andrate",
        "regione":"Piemonte",
        "provincia":"TO",
        "prefisso":125,
        "cod_fisco":"A282",
        "superficie":9.32,
        "num_residenti":520,
        "lng":7.87383937,
        "lat":45.52837479,
        "region_lat":45.0979469594,
        "region_lng":8.0435281102,
        "country_lat":43.3868261599,
        "country_lng":11.5102816457
    },
    {
        "istat":101001,
        "comune":"Belvedere di Spinello",
        "regione":"Calabria",
        "provincia":"KR",
        "prefisso":962,
        "cod_fisco":"A772",
        "superficie":30.19,
        "num_residenti":2315,
        "lng":16.88684476,
        "lat":39.21368354,
        "region_lat":38.9604402158,
        "region_lng":16.2816270665,
        "country_lat":43.3868261599,
        "country_lng":11.5102816457
    },
    {
        "istat":101002,
        "comune":"Caccuri",
        "regione":"Calabria",
        "provincia":"KR",
        "prefisso":984,
        "cod_fisco":"B319",
        "superficie":57.27,
        "num_residenti":1677,
        "lng":16.78028917,
        "lat":39.22719992,
        "region_lat":38.9604402158,
        "region_lng":16.2816270665,
        "country_lat":43.3868261599,
        "country_lng":11.5102816457
    },
    {
        "istat":101003,
        "comune":"Carfizzi",
        "regione":"Calabria",
        "provincia":"KR",
        "prefisso":962,
        "cod_fisco":"B771",
        "superficie":20.34,
        "num_residenti":707,
        "lng":16.97610613,
        "lat":39.30619441,
        "region_lat":38.9604402158,
        "region_lng":16.2816270665,
        "country_lat":43.3868261599,
        "country_lng":11.5102816457
    },
    {
        "istat":101004,
        "comune":"Casabona",
        "regione":"Calabria",
        "provincia":"KR",
        "prefisso":962,
        "cod_fisco":"B857",
        "superficie":68.89,
        "num_residenti":2802,
        "lng":16.9582991,
        "lat":39.24846194,
        "region_lat":38.9604402158,
        "region_lng":16.2816270665,
        "country_lat":43.3868261599,
        "country_lng":11.5102816457
    },
    {
        "istat":101005,
        "comune":"Castelsilano",
        "regione":"Calabria",
        "provincia":"KR",
        "prefisso":984,
        "cod_fisco":"B968",
        "superficie":39.51,
        "num_residenti":1020,
        "lng":16.76686837,
        "lat":39.27061057,
        "region_lat":38.9604402158,
        "region_lng":16.2816270665,
        "country_lat":43.3868261599,
        "country_lng":11.5102816457
    },
    {
        "istat":101006,
        "comune":"Cerenzia",
        "regione":"Calabria",
        "provincia":"KR",
        "prefisso":984,
        "cod_fisco":"C501",
        "superficie":24.28,
        "num_residenti":1179,
        "lng":16.78280961,
        "lat":39.24504071,
        "region_lat":38.9604402158,
        "region_lng":16.2816270665,
        "country_lat":43.3868261599,
        "country_lng":11.5102816457
    },
    {
        "istat":101007,
        "comune":"Cirò",
        "regione":"Calabria",
        "provincia":"KR",
        "prefisso":962,
        "cod_fisco":"C725",
        "superficie":70.15,
        "num_residenti":3087,
        "lng":17.05965462,
        "lat":39.38168502,
        "region_lat":38.9604402158,
        "region_lng":16.2816270665,
        "country_lat":43.3868261599,
        "country_lng":11.5102816457
    },
    {
        "istat":101008,
        "comune":"Cirò Marina",
        "regione":"Calabria",
        "provincia":"KR",
        "prefisso":962,
        "cod_fisco":"C726",
        "superficie":41.6,
        "num_residenti":15061,
        "lng":17.13083844,
        "lat":39.36529092,
        "region_lat":38.9604402158,
        "region_lng":16.2816270665,
        "country_lat":43.3868261599,
        "country_lng":11.5102816457
    },
    {
        "istat":101009,
        "comune":"Cotronei",
        "regione":"Calabria",
        "provincia":"KR",
        "prefisso":962,
        "cod_fisco":"D123",
        "superficie":78.13,
        "num_residenti":5422,
        "lng":16.69678105,
        "lat":39.18958882,
        "region_lat":38.9604402158,
        "region_lng":16.2816270665,
        "country_lat":43.3868261599,
        "country_lng":11.5102816457
    },
    {
        "istat":101010,
        "comune":"Crotone",
        "regione":"Calabria",
        "provincia":"KR",
        "prefisso":962,
        "cod_fisco":"D122",
        "superficie":179.83,
        "num_residenti":59342,
        "lng":17.12539245,
        "lat":39.08036861,
        "region_lat":38.9604402158,
        "region_lng":16.2816270665,
        "country_lat":43.3868261599,
        "country_lng":11.5102816457
    },
    {
        "istat":101011,
        "comune":"Crucoli",
        "regione":"Calabria",
        "provincia":"KR",
        "prefisso":962,
        "cod_fisco":"D189",
        "superficie":49.81,
        "num_residenti":3228,
        "lng":17.00369769,
        "lat":39.42468725,
        "region_lat":38.9604402158,
        "region_lng":16.2816270665,
        "country_lat":43.3868261599,
        "country_lng":11.5102816457
    },
    {
        "istat":101012,
        "comune":"Cutro",
        "regione":"Calabria",
        "provincia":"KR",
        "prefisso":962,
        "cod_fisco":"D236",
        "superficie":131.87,
        "num_residenti":10253,
        "lng":16.98195396,
        "lat":39.03319468,
        "region_lat":38.9604402158,
        "region_lng":16.2816270665,
        "country_lat":43.3868261599,
        "country_lng":11.5102816457
    },
    {
        "istat":101013,
        "comune":"Isola di Capo Rizzuto",
        "regione":"Calabria",
        "provincia":"KR",
        "prefisso":962,
        "cod_fisco":"E339",
        "superficie":125.27,
        "num_residenti":16331,
        "lng":17.09565075,
        "lat":38.95903336,
        "region_lat":38.9604402158,
        "region_lng":16.2816270665,
        "country_lat":43.3868261599,
        "country_lng":11.5102816457
    },
    {
        "istat":101014,
        "comune":"Melissa",
        "regione":"Calabria",
        "provincia":"KR",
        "prefisso":962,
        "cod_fisco":"F108",
        "superficie":50.94,
        "num_residenti":3631,
        "lng":17.02282168,
        "lat":39.30518813,
        "region_lat":38.9604402158,
        "region_lng":16.2816270665,
        "country_lat":43.3868261599,
        "country_lng":11.5102816457
    },
    {
        "istat":101015,
        "comune":"Mesoraca",
        "regione":"Calabria",
        "provincia":"KR",
        "prefisso":962,
        "cod_fisco":"F157",
        "superficie":93.56,
        "num_residenti":6640,
        "lng":16.79386451,
        "lat":39.08252434,
        "region_lat":38.9604402158,
        "region_lng":16.2816270665,
        "country_lat":43.3868261599,
        "country_lng":11.5102816457
    },
    {
        "istat":101016,
        "comune":"Pallagorio",
        "regione":"Calabria",
        "provincia":"KR",
        "prefisso":962,
        "cod_fisco":"G278",
        "superficie":41.96,
        "num_residenti":1295,
        "lng":16.91335025,
        "lat":39.30831843,
        "region_lat":38.9604402158,
        "region_lng":16.2816270665,
        "country_lat":43.3868261599,
        "country_lng":11.5102816457
    },
    {
        "istat":101017,
        "comune":"Petilia Policastro",
        "regione":"Calabria",
        "provincia":"KR",
        "prefisso":962,
        "cod_fisco":"G508",
        "superficie":96.43,
        "num_residenti":9276,
        "lng":16.79270604,
        "lat":39.11064945,
        "region_lat":38.9604402158,
        "region_lng":16.2816270665,
        "country_lat":43.3868261599,
        "country_lng":11.5102816457
    },
    {
        "istat":101018,
        "comune":"Roccabernarda",
        "regione":"Calabria",
        "provincia":"KR",
        "prefisso":962,
        "cod_fisco":"H383",
        "superficie":65.52,
        "num_residenti":3439,
        "lng":16.87173066,
        "lat":39.13395116,
        "region_lat":38.9604402158,
        "region_lng":16.2816270665,
        "country_lat":43.3868261599,
        "country_lng":11.5102816457
    },
    {
        "istat":101019,
        "comune":"Rocca di Neto",
        "regione":"Calabria",
        "provincia":"KR",
        "prefisso":962,
        "cod_fisco":"H403",
        "superficie":43.63,
        "num_residenti":5662,
        "lng":17.00234034,
        "lat":39.19170933,
        "region_lat":38.9604402158,
        "region_lng":16.2816270665,
        "country_lat":43.3868261599,
        "country_lng":11.5102816457
    },
    {
        "istat":101020,
        "comune":"San Mauro Marchesato",
        "regione":"Calabria",
        "provincia":"KR",
        "prefisso":962,
        "cod_fisco":"I026",
        "superficie":42.02,
        "num_residenti":2166,
        "lng":16.92253935,
        "lat":39.10276548,
        "region_lat":38.9604402158,
        "region_lng":16.2816270665,
        "country_lat":43.3868261599,
        "country_lng":11.5102816457
    },
    {
        "istat":101021,
        "comune":"San Nicola dell'Alto",
        "regione":"Calabria",
        "provincia":"KR",
        "prefisso":962,
        "cod_fisco":"I057",
        "superficie":7.83,
        "num_residenti":867,
        "lng":16.97575675,
        "lat":39.28820184,
        "region_lat":38.9604402158,
        "region_lng":16.2816270665,
        "country_lat":43.3868261599,
        "country_lng":11.5102816457
    },
    {
        "istat":101022,
        "comune":"Santa Severina",
        "regione":"Calabria",
        "provincia":"KR",
        "prefisso":962,
        "cod_fisco":"I308",
        "superficie":51.88,
        "num_residenti":2196,
        "lng":16.91496355,
        "lat":39.1478435,
        "region_lat":38.9604402158,
        "region_lng":16.2816270665,
        "country_lat":43.3868261599,
        "country_lng":11.5102816457
    },
    {
        "istat":101023,
        "comune":"Savelli",
        "regione":"Calabria",
        "provincia":"KR",
        "prefisso":984,
        "cod_fisco":"I468",
        "superficie":48.5,
        "num_residenti":1315,
        "lng":16.78082128,
        "lat":39.31229782,
        "region_lat":38.9604402158,
        "region_lng":16.2816270665,
        "country_lat":43.3868261599,
        "country_lng":11.5102816457
    },
    {
        "istat":101024,
        "comune":"Scandale",
        "regione":"Calabria",
        "provincia":"KR",
        "prefisso":962,
        "cod_fisco":"I494",
        "superficie":53.65,
        "num_residenti":3295,
        "lng":16.95852503,
        "lat":39.12313864,
        "region_lat":38.9604402158,
        "region_lng":16.2816270665,
        "country_lat":43.3868261599,
        "country_lng":11.5102816457
    },
    {
        "istat":101025,
        "comune":"Strongoli",
        "regione":"Calabria",
        "provincia":"KR",
        "prefisso":962,
        "cod_fisco":"I982",
        "superficie":85.29,
        "num_residenti":6623,
        "lng":17.05273017,
        "lat":39.26750146,
        "region_lat":38.9604402158,
        "region_lng":16.2816270665,
        "country_lat":43.3868261599,
        "country_lng":11.5102816457
    },
    {
        "istat":101026,
        "comune":"Umbriatico",
        "regione":"Calabria",
        "provincia":"KR",
        "prefisso":962,
        "cod_fisco":"L492",
        "superficie":72.86,
        "num_residenti":894,
        "lng":16.91718776,
        "lat":39.35281114,
        "region_lat":38.9604402158,
        "region_lng":16.2816270665,
        "country_lat":43.3868261599,
        "country_lng":11.5102816457
    },
    {
        "istat":101027,
        "comune":"Verzino",
        "regione":"Calabria",
        "provincia":"KR",
        "prefisso":962,
        "cod_fisco":"L802",
        "superficie":45.37,
        "num_residenti":1943,
        "lng":16.86168109,
        "lat":39.3124779,
        "region_lat":38.9604402158,
        "region_lng":16.2816270665,
        "country_lat":43.3868261599,
        "country_lng":11.5102816457
    },
    {
        "istat":1011,
        "comune":"Angrogna",
        "regione":"Piemonte",
        "provincia":"TO",
        "prefisso":121,
        "cod_fisco":"A295",
        "superficie":38.69,
        "num_residenti":872,
        "lng":7.22429215,
        "lat":44.84344991,
        "region_lat":45.0979469594,
        "region_lng":8.0435281102,
        "country_lat":43.3868261599,
        "country_lng":11.5102816457
    },
    {
        "istat":1012,
        "comune":"Arignano",
        "regione":"Piemonte",
        "provincia":"TO",
        "prefisso":11,
        "cod_fisco":"A405",
        "superficie":8.23,
        "num_residenti":1080,
        "lng":7.90244635,
        "lat":45.04402899,
        "region_lat":45.0979469594,
        "region_lng":8.0435281102,
        "country_lat":43.3868261599,
        "country_lng":11.5102816457
    },
    {
        "istat":1013,
        "comune":"Avigliana",
        "regione":"Piemonte",
        "provincia":"TO",
        "prefisso":11,
        "cod_fisco":"A518",
        "superficie":23.26,
        "num_residenti":12262,
        "lng":7.39632339,
        "lat":45.07935742,
        "region_lat":45.0979469594,
        "region_lng":8.0435281102,
        "country_lat":43.3868261599,
        "country_lng":11.5102816457
    },
    {
        "istat":1014,
        "comune":"Azeglio",
        "regione":"Piemonte",
        "provincia":"TO",
        "prefisso":125,
        "cod_fisco":"A525",
        "superficie":9.88,
        "num_residenti":1344,
        "lng":7.9947707,
        "lat":45.4248619,
        "region_lat":45.0979469594,
        "region_lng":8.0435281102,
        "country_lat":43.3868261599,
        "country_lng":11.5102816457
    },
    {
        "istat":1015,
        "comune":"Bairo",
        "regione":"Piemonte",
        "provincia":"TO",
        "prefisso":124,
        "cod_fisco":"A584",
        "superficie":7.16,
        "num_residenti":806,
        "lng":7.75691809,
        "lat":45.38624929,
        "region_lat":45.0979469594,
        "region_lng":8.0435281102,
        "country_lat":43.3868261599,
        "country_lng":11.5102816457
    },
    {
        "istat":1016,
        "comune":"Balangero",
        "regione":"Piemonte",
        "provincia":"TO",
        "prefisso":123,
        "cod_fisco":"A587",
        "superficie":12.9,
        "num_residenti":3219,
        "lng":7.51930957,
        "lat":45.27003001,
        "region_lat":45.0979469594,
        "region_lng":8.0435281102,
        "country_lat":43.3868261599,
        "country_lng":11.5102816457
    },
    {
        "istat":1017,
        "comune":"Baldissero Canavese",
        "regione":"Piemonte",
        "provincia":"TO",
        "prefisso":124,
        "cod_fisco":"A590",
        "superficie":4.37,
        "num_residenti":532,
        "lng":7.74444451,
        "lat":45.40840358,
        "region_lat":45.0979469594,
        "region_lng":8.0435281102,
        "country_lat":43.3868261599,
        "country_lng":11.5102816457
    },
    {
        "istat":1018,
        "comune":"Baldissero Torinese",
        "regione":"Piemonte",
        "provincia":"TO",
        "prefisso":11,
        "cod_fisco":"A591",
        "superficie":15.46,
        "num_residenti":3783,
        "lng":7.81780767,
        "lat":45.06842334,
        "region_lat":45.0979469594,
        "region_lng":8.0435281102,
        "country_lat":43.3868261599,
        "country_lng":11.5102816457
    },
    {
        "istat":1019,
        "comune":"Balme",
        "regione":"Piemonte",
        "provincia":"TO",
        "prefisso":123,
        "cod_fisco":"A599",
        "superficie":61.47,
        "num_residenti":99,
        "lng":7.21831414,
        "lat":45.30229406,
        "region_lat":45.0979469594,
        "region_lng":8.0435281102,
        "country_lat":43.3868261599,
        "country_lng":11.5102816457
    },
    {
        "istat":1020,
        "comune":"Banchette",
        "regione":"Piemonte",
        "provincia":"TO",
        "prefisso":125,
        "cod_fisco":"A607",
        "superficie":2.17,
        "num_residenti":3293,
        "lng":7.85656384,
        "lat":45.4608501,
        "region_lat":45.0979469594,
        "region_lng":8.0435281102,
        "country_lat":43.3868261599,
        "country_lng":11.5102816457
    },
    {
        "istat":102001,
        "comune":"Acquaro",
        "regione":"Calabria",
        "provincia":"VV",
        "prefisso":963,
        "cod_fisco":"A043",
        "superficie":25.32,
        "num_residenti":2415,
        "lng":16.18996399,
        "lat":38.55558146,
        "region_lat":38.9604402158,
        "region_lng":16.2816270665,
        "country_lat":43.3868261599,
        "country_lng":11.5102816457
    },
    {
        "istat":102002,
        "comune":"Arena",
        "regione":"Calabria",
        "provincia":"VV",
        "prefisso":963,
        "cod_fisco":"A386",
        "superficie":32.35,
        "num_residenti":1466,
        "lng":16.20999999,
        "lat":38.56295629,
        "region_lat":38.9604402158,
        "region_lng":16.2816270665,
        "country_lat":43.3868261599,
        "country_lng":11.5102816457
    },
    {
        "istat":102003,
        "comune":"Briatico",
        "regione":"Calabria",
        "provincia":"VV",
        "prefisso":963,
        "cod_fisco":"B169",
        "superficie":27.75,
        "num_residenti":3931,
        "lng":16.0341552,
        "lat":38.72445456,
        "region_lat":38.9604402158,
        "region_lng":16.2816270665,
        "country_lat":43.3868261599,
        "country_lng":11.5102816457
    },
    {
        "istat":102004,
        "comune":"Brognaturo",
        "regione":"Calabria",
        "provincia":"VV",
        "prefisso":963,
        "cod_fisco":"B197",
        "superficie":24.5,
        "num_residenti":663,
        "lng":16.34247722,
        "lat":38.60153042,
        "region_lat":38.9604402158,
        "region_lng":16.2816270665,
        "country_lat":43.3868261599,
        "country_lng":11.5102816457
    },
    {
        "istat":102005,
        "comune":"Capistrano",
        "regione":"Calabria",
        "provincia":"VV",
        "prefisso":963,
        "cod_fisco":"B655",
        "superficie":20.94,
        "num_residenti":1072,
        "lng":16.28869251,
        "lat":38.69067014,
        "region_lat":38.9604402158,
        "region_lng":16.2816270665,
        "country_lat":43.3868261599,
        "country_lng":11.5102816457
    },
    {
        "istat":102006,
        "comune":"Cessaniti",
        "regione":"Calabria",
        "provincia":"VV",
        "prefisso":963,
        "cod_fisco":"C581",
        "superficie":17.86,
        "num_residenti":3359,
        "lng":16.02959092,
        "lat":38.6639523,
        "region_lat":38.9604402158,
        "region_lng":16.2816270665,
        "country_lat":43.3868261599,
        "country_lng":11.5102816457
    },
    {
        "istat":102007,
        "comune":"Dasà",
        "regione":"Calabria",
        "provincia":"VV",
        "prefisso":963,
        "cod_fisco":"D253",
        "superficie":6.19,
        "num_residenti":1240,
        "lng":16.19644659,
        "lat":38.56536828,
        "region_lat":38.9604402158,
        "region_lng":16.2816270665,
        "country_lat":43.3868261599,
        "country_lng":11.5102816457
    },
    {
        "istat":102008,
        "comune":"Dinami",
        "regione":"Calabria",
        "provincia":"VV",
        "prefisso":966,
        "cod_fisco":"D303",
        "superficie":44.06,
        "num_residenti":2374,
        "lng":16.14770415,
        "lat":38.52963719,
        "region_lat":38.9604402158,
        "region_lng":16.2816270665,
        "country_lat":43.3868261599,
        "country_lng":11.5102816457
    },
    {
        "istat":102009,
        "comune":"Drapia",
        "regione":"Calabria",
        "provincia":"VV",
        "prefisso":963,
        "cod_fisco":"D364",
        "superficie":21.52,
        "num_residenti":2086,
        "lng":15.91122353,
        "lat":38.66611711,
        "region_lat":38.9604402158,
        "region_lng":16.2816270665,
        "country_lat":43.3868261599,
        "country_lng":11.5102816457
    },
    {
        "istat":102010,
        "comune":"Fabrizia",
        "regione":"Calabria",
        "provincia":"VV",
        "prefisso":963,
        "cod_fisco":"D453",
        "superficie":38.78,
        "num_residenti":2312,
        "lng":16.30309317,
        "lat":38.48357691,
        "region_lat":38.9604402158,
        "region_lng":16.2816270665,
        "country_lat":43.3868261599,
        "country_lng":11.5102816457
    },
    {
        "istat":102011,
        "comune":"Filadelfia",
        "regione":"Calabria",
        "provincia":"VV",
        "prefisso":968,
        "cod_fisco":"D587",
        "superficie":30.48,
        "num_residenti":5553,
        "lng":16.29343449,
        "lat":38.78355638,
        "region_lat":38.9604402158,
        "region_lng":16.2816270665,
        "country_lat":43.3868261599,
        "country_lng":11.5102816457
    },
    {
        "istat":102012,
        "comune":"Filandari",
        "regione":"Calabria",
        "provincia":"VV",
        "prefisso":963,
        "cod_fisco":"D589",
        "superficie":18.54,
        "num_residenti":1854,
        "lng":16.03138461,
        "lat":38.61541349,
        "region_lat":38.9604402158,
        "region_lng":16.2816270665,
        "country_lat":43.3868261599,
        "country_lng":11.5102816457
    },
    {
        "istat":102013,
        "comune":"Filogaso",
        "regione":"Calabria",
        "provincia":"VV",
        "prefisso":963,
        "cod_fisco":"D596",
        "superficie":23.69,
        "num_residenti":1455,
        "lng":16.23087033,
        "lat":38.68091561,
        "region_lat":38.9604402158,
        "region_lng":16.2816270665,
        "country_lat":43.3868261599,
        "country_lng":11.5102816457
    },
    {
        "istat":102014,
        "comune":"Francavilla Angitola",
        "regione":"Calabria",
        "provincia":"VV",
        "prefisso":968,
        "cod_fisco":"D762",
        "superficie":28.25,
        "num_residenti":1979,
        "lng":16.27066608,
        "lat":38.77801727,
        "region_lat":38.9604402158,
        "region_lng":16.2816270665,
        "country_lat":43.3868261599,
        "country_lng":11.5102816457
    },
    {
        "istat":102015,
        "comune":"Francica",
        "regione":"Calabria",
        "provincia":"VV",
        "prefisso":963,
        "cod_fisco":"D767",
        "superficie":22.73,
        "num_residenti":1655,
        "lng":16.10169169,
        "lat":38.61831486,
        "region_lat":38.9604402158,
        "region_lng":16.2816270665,
        "country_lat":43.3868261599,
        "country_lng":11.5102816457
    },
    {
        "istat":102016,
        "comune":"Gerocarne",
        "regione":"Calabria",
        "provincia":"VV",
        "prefisso":963,
        "cod_fisco":"D988",
        "superficie":44.93,
        "num_residenti":2341,
        "lng":16.22068674,
        "lat":38.58715265,
        "region_lat":38.9604402158,
        "region_lng":16.2816270665,
        "country_lat":43.3868261599,
        "country_lng":11.5102816457
    },
    {
        "istat":102017,
        "comune":"Ionadi",
        "regione":"Calabria",
        "provincia":"VV",
        "prefisso":963,
        "cod_fisco":"E321",
        "superficie":8.72,
        "num_residenti":3947,
        "lng":16.05444962,
        "lat":38.62781794,
        "region_lat":38.9604402158,
        "region_lng":16.2816270665,
        "country_lat":43.3868261599,
        "country_lng":11.5102816457
    },
    {
        "istat":102018,
        "comune":"Joppolo",
        "regione":"Calabria",
        "provincia":"VV",
        "prefisso":963,
        "cod_fisco":"E389",
        "superficie":15.31,
        "num_residenti":2045,
        "lng":15.89747029,
        "lat":38.58390789,
        "region_lat":38.9604402158,
        "region_lng":16.2816270665,
        "country_lat":43.3868261599,
        "country_lng":11.5102816457
    },
    {
        "istat":102019,
        "comune":"Limbadi",
        "regione":"Calabria",
        "provincia":"VV",
        "prefisso":963,
        "cod_fisco":"E590",
        "superficie":28.9,
        "num_residenti":3477,
        "lng":15.96202569,
        "lat":38.55879726,
        "region_lat":38.9604402158,
        "region_lng":16.2816270665,
        "country_lat":43.3868261599,
        "country_lng":11.5102816457
    },
    {
        "istat":102020,
        "comune":"Maierato",
        "regione":"Calabria",
        "provincia":"VV",
        "prefisso":963,
        "cod_fisco":"E836",
        "superficie":39.88,
        "num_residenti":2156,
        "lng":16.19233423,
        "lat":38.70706608,
        "region_lat":38.9604402158,
        "region_lng":16.2816270665,
        "country_lat":43.3868261599,
        "country_lng":11.5102816457
    },
    {
        "istat":102021,
        "comune":"Mileto",
        "regione":"Calabria",
        "provincia":"VV",
        "prefisso":963,
        "cod_fisco":"F207",
        "superficie":34.94,
        "num_residenti":6823,
        "lng":16.0598991,
        "lat":38.60321441,
        "region_lat":38.9604402158,
        "region_lng":16.2816270665,
        "country_lat":43.3868261599,
        "country_lng":11.5102816457
    },
    {
        "istat":102022,
        "comune":"Mongiana",
        "regione":"Calabria",
        "provincia":"VV",
        "prefisso":963,
        "cod_fisco":"F364",
        "superficie":20.7,
        "num_residenti":779,
        "lng":16.31924156,
        "lat":38.51343965,
        "region_lat":38.9604402158,
        "region_lng":16.2816270665,
        "country_lat":43.3868261599,
        "country_lng":11.5102816457
    },
    {
        "istat":102023,
        "comune":"Monterosso Calabro",
        "regione":"Calabria",
        "provincia":"VV",
        "prefisso":963,
        "cod_fisco":"F607",
        "superficie":18.16,
        "num_residenti":1781,
        "lng":16.2873896,
        "lat":38.717932,
        "region_lat":38.9604402158,
        "region_lng":16.2816270665,
        "country_lat":43.3868261599,
        "country_lng":11.5102816457
    },
    {
        "istat":102024,
        "comune":"Nardodipace",
        "regione":"Calabria",
        "provincia":"VV",
        "prefisso":963,
        "cod_fisco":"F843",
        "superficie":32.78,
        "num_residenti":1347,
        "lng":16.34295565,
        "lat":38.47418003,
        "region_lat":38.9604402158,
        "region_lng":16.2816270665,
        "country_lat":43.3868261599,
        "country_lng":11.5102816457
    },
    {
        "istat":102025,
        "comune":"Nicotera",
        "regione":"Calabria",
        "provincia":"VV",
        "prefisso":963,
        "cod_fisco":"F893",
        "superficie":32.77,
        "num_residenti":6423,
        "lng":15.93189887,
        "lat":38.54358682,
        "region_lat":38.9604402158,
        "region_lng":16.2816270665,
        "country_lat":43.3868261599,
        "country_lng":11.5102816457
    },
    {
        "istat":102026,
        "comune":"Parghelia",
        "regione":"Calabria",
        "provincia":"VV",
        "prefisso":963,
        "cod_fisco":"G335",
        "superficie":8.0,
        "num_residenti":1304,
        "lng":15.92423588,
        "lat":38.6818366,
        "region_lat":38.9604402158,
        "region_lng":16.2816270665,
        "country_lat":43.3868261599,
        "country_lng":11.5102816457
    },
    {
        "istat":102027,
        "comune":"Pizzo",
        "regione":"Calabria",
        "provincia":"VV",
        "prefisso":963,
        "cod_fisco":"G722",
        "superficie":22.34,
        "num_residenti":8982,
        "lng":16.16159449,
        "lat":38.73590531,
        "region_lat":38.9604402158,
        "region_lng":16.2816270665,
        "country_lat":43.3868261599,
        "country_lng":11.5102816457
    },
    {
        "istat":102028,
        "comune":"Pizzoni",
        "regione":"Calabria",
        "provincia":"VV",
        "prefisso":963,
        "cod_fisco":"G728",
        "superficie":23.23,
        "num_residenti":1205,
        "lng":16.24949156,
        "lat":38.62342078,
        "region_lat":38.9604402158,
        "region_lng":16.2816270665,
        "country_lat":43.3868261599,
        "country_lng":11.5102816457
    },
    {
        "istat":102029,
        "comune":"Polia",
        "regione":"Calabria",
        "provincia":"VV",
        "prefisso":963,
        "cod_fisco":"G785",
        "superficie":31.78,
        "num_residenti":1046,
        "lng":16.31405456,
        "lat":38.75092029,
        "region_lat":38.9604402158,
        "region_lng":16.2816270665,
        "country_lat":43.3868261599,
        "country_lng":11.5102816457
    },
    {
        "istat":102030,
        "comune":"Ricadi",
        "regione":"Calabria",
        "provincia":"VV",
        "prefisso":963,
        "cod_fisco":"H271",
        "superficie":22.3,
        "num_residenti":4770,
        "lng":15.86639112,
        "lat":38.62421334,
        "region_lat":38.9604402158,
        "region_lng":16.2816270665,
        "country_lat":43.3868261599,
        "country_lng":11.5102816457
    },
    {
        "istat":102031,
        "comune":"Rombiolo",
        "regione":"Calabria",
        "provincia":"VV",
        "prefisso":963,
        "cod_fisco":"H516",
        "superficie":22.81,
        "num_residenti":4612,
        "lng":16.00158118,
        "lat":38.59761794,
        "region_lat":38.9604402158,
        "region_lng":16.2816270665,
        "country_lat":43.3868261599,
        "country_lng":11.5102816457
    },
    {
        "istat":102032,
        "comune":"San Calogero",
        "regione":"Calabria",
        "provincia":"VV",
        "prefisso":963,
        "cod_fisco":"H785",
        "superficie":25.12,
        "num_residenti":4471,
        "lng":16.01327729,
        "lat":38.57066223,
        "region_lat":38.9604402158,
        "region_lng":16.2816270665,
        "country_lat":43.3868261599,
        "country_lng":11.5102816457
    },
    {
        "istat":102033,
        "comune":"San Costantino Calabro",
        "regione":"Calabria",
        "provincia":"VV",
        "prefisso":963,
        "cod_fisco":"H807",
        "superficie":7.03,
        "num_residenti":2197,
        "lng":16.07081575,
        "lat":38.63339201,
        "region_lat":38.9604402158,
        "region_lng":16.2816270665,
        "country_lat":43.3868261599,
        "country_lng":11.5102816457
    },
    {
        "istat":102034,
        "comune":"San Gregorio d'Ippona",
        "regione":"Calabria",
        "provincia":"VV",
        "prefisso":963,
        "cod_fisco":"H941",
        "superficie":12.37,
        "num_residenti":2453,
        "lng":16.10173844,
        "lat":38.64330445,
        "region_lat":38.9604402158,
        "region_lng":16.2816270665,
        "country_lat":43.3868261599,
        "country_lng":11.5102816457
    },
    {
        "istat":102035,
        "comune":"San Nicola da Crissa",
        "regione":"Calabria",
        "provincia":"VV",
        "prefisso":963,
        "cod_fisco":"I058",
        "superficie":19.32,
        "num_residenti":1374,
        "lng":16.28624651,
        "lat":38.664379,
        "region_lat":38.9604402158,
        "region_lng":16.2816270665,
        "country_lat":43.3868261599,
        "country_lng":11.5102816457
    },
    {
        "istat":102036,
        "comune":"Sant'Onofrio",
        "regione":"Calabria",
        "provincia":"VV",
        "prefisso":963,
        "cod_fisco":"I350",
        "superficie":18.36,
        "num_residenti":3101,
        "lng":16.14283521,
        "lat":38.6965214,
        "region_lat":38.9604402158,
        "region_lng":16.2816270665,
        "country_lat":43.3868261599,
        "country_lng":11.5102816457
    },
    {
        "istat":102037,
        "comune":"Serra San Bruno",
        "regione":"Calabria",
        "provincia":"VV",
        "prefisso":963,
        "cod_fisco":"I639",
        "superficie":39.58,
        "num_residenti":6807,
        "lng":16.3269465,
        "lat":38.57357167,
        "region_lat":38.9604402158,
        "region_lng":16.2816270665,
        "country_lat":43.3868261599,
        "country_lng":11.5102816457
    },
    {
        "istat":102038,
        "comune":"Simbario",
        "regione":"Calabria",
        "provincia":"VV",
        "prefisso":963,
        "cod_fisco":"I744",
        "superficie":19.25,
        "num_residenti":954,
        "lng":16.33826797,
        "lat":38.61080156,
        "region_lat":38.9604402158,
        "region_lng":16.2816270665,
        "country_lat":43.3868261599,
        "country_lng":11.5102816457
    },
    {
        "istat":102039,
        "comune":"Sorianello",
        "regione":"Calabria",
        "provincia":"VV",
        "prefisso":963,
        "cod_fisco":"I853",
        "superficie":9.72,
        "num_residenti":1196,
        "lng":16.23286745,
        "lat":38.59224575,
        "region_lat":38.9604402158,
        "region_lng":16.2816270665,
        "country_lat":43.3868261599,
        "country_lng":11.5102816457
    },
    {
        "istat":102040,
        "comune":"Soriano Calabro",
        "regione":"Calabria",
        "provincia":"VV",
        "prefisso":963,
        "cod_fisco":"I854",
        "superficie":15.17,
        "num_residenti":2427,
        "lng":16.23011086,
        "lat":38.59645359,
        "region_lat":38.9604402158,
        "region_lng":16.2816270665,
        "country_lat":43.3868261599,
        "country_lng":11.5102816457
    },
    {
        "istat":102041,
        "comune":"Spadola",
        "regione":"Calabria",
        "provincia":"VV",
        "prefisso":963,
        "cod_fisco":"I884",
        "superficie":9.58,
        "num_residenti":869,
        "lng":16.33651103,
        "lat":38.60364244,
        "region_lat":38.9604402158,
        "region_lng":16.2816270665,
        "country_lat":43.3868261599,
        "country_lng":11.5102816457
    },
    {
        "istat":102042,
        "comune":"Spilinga",
        "regione":"Calabria",
        "provincia":"VV",
        "prefisso":963,
        "cod_fisco":"I905",
        "superficie":18.69,
        "num_residenti":1462,
        "lng":15.90583616,
        "lat":38.62855215,
        "region_lat":38.9604402158,
        "region_lng":16.2816270665,
        "country_lat":43.3868261599,
        "country_lng":11.5102816457
    },
    {
        "istat":102043,
        "comune":"Stefanaconi",
        "regione":"Calabria",
        "provincia":"VV",
        "prefisso":963,
        "cod_fisco":"I945",
        "superficie":23.23,
        "num_residenti":2557,
        "lng":16.12717322,
        "lat":38.67620452,
        "region_lat":38.9604402158,
        "region_lng":16.2816270665,
        "country_lat":43.3868261599,
        "country_lng":11.5102816457
    },
    {
        "istat":102044,
        "comune":"Tropea",
        "regione":"Calabria",
        "provincia":"VV",
        "prefisso":963,
        "cod_fisco":"L452",
        "superficie":3.59,
        "num_residenti":6500,
        "lng":15.89789231,
        "lat":38.67862874,
        "region_lat":38.9604402158,
        "region_lng":16.2816270665,
        "country_lat":43.3868261599,
        "country_lng":11.5102816457
    },
    {
        "istat":102045,
        "comune":"Vallelonga",
        "regione":"Calabria",
        "provincia":"VV",
        "prefisso":963,
        "cod_fisco":"L607",
        "superficie":17.53,
        "num_residenti":687,
        "lng":16.29598601,
        "lat":38.64696316,
        "region_lat":38.9604402158,
        "region_lng":16.2816270665,
        "country_lat":43.3868261599,
        "country_lng":11.5102816457
    },
    {
        "istat":102046,
        "comune":"Vazzano",
        "regione":"Calabria",
        "provincia":"VV",
        "prefisso":963,
        "cod_fisco":"L699",
        "superficie":19.85,
        "num_residenti":1092,
        "lng":16.24599797,
        "lat":38.63353666,
        "region_lat":38.9604402158,
        "region_lng":16.2816270665,
        "country_lat":43.3868261599,
        "country_lng":11.5102816457
    },
    {
        "istat":102047,
        "comune":"Vibo Valentia",
        "regione":"Calabria",
        "provincia":"VV",
        "prefisso":963,
        "cod_fisco":"F537",
        "superficie":46.34,
        "num_residenti":33118,
        "lng":16.10157559,
        "lat":38.67624141,
        "region_lat":38.9604402158,
        "region_lng":16.2816270665,
        "country_lat":43.3868261599,
        "country_lng":11.5102816457
    },
    {
        "istat":102048,
        "comune":"Zaccanopoli",
        "regione":"Calabria",
        "provincia":"VV",
        "prefisso":963,
        "cod_fisco":"M138",
        "superficie":6.61,
        "num_residenti":775,
        "lng":15.93068747,
        "lat":38.66409872,
        "region_lat":38.9604402158,
        "region_lng":16.2816270665,
        "country_lat":43.3868261599,
        "country_lng":11.5102816457
    },
    {
        "istat":102049,
        "comune":"Zambrone",
        "regione":"Calabria",
        "provincia":"VV",
        "prefisso":963,
        "cod_fisco":"M143",
        "superficie":14.36,
        "num_residenti":1766,
        "lng":15.98982134,
        "lat":38.69877958,
        "region_lat":38.9604402158,
        "region_lng":16.2816270665,
        "country_lat":43.3868261599,
        "country_lng":11.5102816457
    },
    {
        "istat":102050,
        "comune":"Zungri",
        "regione":"Calabria",
        "provincia":"VV",
        "prefisso":963,
        "cod_fisco":"M204",
        "superficie":23.26,
        "num_residenti":1994,
        "lng":15.98363574,
        "lat":38.65678215,
        "region_lat":38.9604402158,
        "region_lng":16.2816270665,
        "country_lat":43.3868261599,
        "country_lng":11.5102816457
    },
    {
        "istat":1021,
        "comune":"Barbania",
        "regione":"Piemonte",
        "provincia":"TO",
        "prefisso":11,
        "cod_fisco":"A625",
        "superficie":12.8,
        "num_residenti":1648,
        "lng":7.63051093,
        "lat":45.2905002,
        "region_lat":45.0979469594,
        "region_lng":8.0435281102,
        "country_lat":43.3868261599,
        "country_lng":11.5102816457
    },
    {
        "istat":1022,
        "comune":"Bardonecchia",
        "regione":"Piemonte",
        "provincia":"TO",
        "prefisso":122,
        "cod_fisco":"A651",
        "superficie":132.31,
        "num_residenti":3226,
        "lng":6.70382393,
        "lat":45.07816901,
        "region_lat":45.0979469594,
        "region_lng":8.0435281102,
        "country_lat":43.3868261599,
        "country_lng":11.5102816457
    },
    {
        "istat":1023,
        "comune":"Barone Canavese",
        "regione":"Piemonte",
        "provincia":"TO",
        "prefisso":11,
        "cod_fisco":"A673",
        "superficie":4.0,
        "num_residenti":597,
        "lng":7.87055626,
        "lat":45.32772558,
        "region_lat":45.0979469594,
        "region_lng":8.0435281102,
        "country_lat":43.3868261599,
        "country_lng":11.5102816457
    },
    {
        "istat":1024,
        "comune":"Beinasco",
        "regione":"Piemonte",
        "provincia":"TO",
        "prefisso":11,
        "cod_fisco":"A734",
        "superficie":6.76,
        "num_residenti":18164,
        "lng":7.57915804,
        "lat":45.02207899,
        "region_lat":45.0979469594,
        "region_lng":8.0435281102,
        "country_lat":43.3868261599,
        "country_lng":11.5102816457
    },
    {
        "istat":1025,
        "comune":"Bibiana",
        "regione":"Piemonte",
        "provincia":"TO",
        "prefisso":121,
        "cod_fisco":"A853",
        "superficie":18.64,
        "num_residenti":3426,
        "lng":7.28978596,
        "lat":44.79758015,
        "region_lat":45.0979469594,
        "region_lng":8.0435281102,
        "country_lat":43.3868261599,
        "country_lng":11.5102816457
    },
    {
        "istat":1026,
        "comune":"Bobbio Pellice",
        "regione":"Piemonte",
        "provincia":"TO",
        "prefisso":121,
        "cod_fisco":"A910",
        "superficie":93.88,
        "num_residenti":564,
        "lng":7.11790449,
        "lat":44.80770617,
        "region_lat":45.0979469594,
        "region_lng":8.0435281102,
        "country_lat":43.3868261599,
        "country_lng":11.5102816457
    },
    {
        "istat":1027,
        "comune":"Bollengo",
        "regione":"Piemonte",
        "provincia":"TO",
        "prefisso":125,
        "cod_fisco":"A941",
        "superficie":14.22,
        "num_residenti":2107,
        "lng":7.94534881,
        "lat":45.4733572,
        "region_lat":45.0979469594,
        "region_lng":8.0435281102,
        "country_lat":43.3868261599,
        "country_lng":11.5102816457
    },
    {
        "istat":1028,
        "comune":"Borgaro Torinese",
        "regione":"Piemonte",
        "provincia":"TO",
        "prefisso":11,
        "cod_fisco":"A990",
        "superficie":11.18,
        "num_residenti":13629,
        "lng":7.65789441,
        "lat":45.15198241,
        "region_lat":45.0979469594,
        "region_lng":8.0435281102,
        "country_lat":43.3868261599,
        "country_lng":11.5102816457
    },
    {
        "istat":1029,
        "comune":"Borgiallo",
        "regione":"Piemonte",
        "provincia":"TO",
        "prefisso":124,
        "cod_fisco":"B003",
        "superficie":6.99,
        "num_residenti":563,
        "lng":7.66773369,
        "lat":45.4168132,
        "region_lat":45.0979469594,
        "region_lng":8.0435281102,
        "country_lat":43.3868261599,
        "country_lng":11.5102816457
    },
    {
        "istat":1030,
        "comune":"Borgofranco d'Ivrea",
        "regione":"Piemonte",
        "provincia":"TO",
        "prefisso":125,
        "cod_fisco":"B015",
        "superficie":13.34,
        "num_residenti":3762,
        "lng":7.85852209,
        "lat":45.51300686,
        "region_lat":45.0979469594,
        "region_lng":8.0435281102,
        "country_lat":43.3868261599,
        "country_lng":11.5102816457
    },
    {
        "istat":103001,
        "comune":"Antrona Schieranco",
        "regione":"Piemonte",
        "provincia":"VB",
        "prefisso":324,
        "cod_fisco":"A317",
        "superficie":99.95,
        "num_residenti":449,
        "lng":8.11509976,
        "lat":46.06141305,
        "region_lat":45.0979469594,
        "region_lng":8.0435281102,
        "country_lat":43.3868261599,
        "country_lng":11.5102816457
    },
    {
        "istat":103002,
        "comune":"Anzola d'Ossola",
        "regione":"Piemonte",
        "provincia":"VB",
        "prefisso":323,
        "cod_fisco":"A325",
        "superficie":13.88,
        "num_residenti":448,
        "lng":8.34746103,
        "lat":45.98947805,
        "region_lat":45.0979469594,
        "region_lng":8.0435281102,
        "country_lat":43.3868261599,
        "country_lng":11.5102816457
    },
    {
        "istat":103003,
        "comune":"Arizzano",
        "regione":"Piemonte",
        "provincia":"VB",
        "prefisso":323,
        "cod_fisco":"A409",
        "superficie":1.6,
        "num_residenti":2086,
        "lng":8.58310897,
        "lat":45.95560733,
        "region_lat":45.0979469594,
        "region_lng":8.0435281102,
        "country_lat":43.3868261599,
        "country_lng":11.5102816457
    },
    {
        "istat":103004,
        "comune":"Arola",
        "regione":"Piemonte",
        "provincia":"VB",
        "prefisso":323,
        "cod_fisco":"A427",
        "superficie":6.57,
        "num_residenti":258,
        "lng":8.35875818,
        "lat":45.80953519,
        "region_lat":45.0979469594,
        "region_lng":8.0435281102,
        "country_lat":43.3868261599,
        "country_lng":11.5102816457
    },
    {
        "istat":103005,
        "comune":"Aurano",
        "regione":"Piemonte",
        "provincia":"VB",
        "prefisso":323,
        "cod_fisco":"A497",
        "superficie":21.22,
        "num_residenti":93,
        "lng":8.58799522,
        "lat":45.99871062,
        "region_lat":45.0979469594,
        "region_lng":8.0435281102,
        "country_lat":43.3868261599,
        "country_lng":11.5102816457
    },
    {
        "istat":103006,
        "comune":"Baceno",
        "regione":"Piemonte",
        "provincia":"VB",
        "prefisso":324,
        "cod_fisco":"A534",
        "superficie":68.7,
        "num_residenti":914,
        "lng":8.31948395,
        "lat":46.26149142,
        "region_lat":45.0979469594,
        "region_lng":8.0435281102,
        "country_lat":43.3868261599,
        "country_lng":11.5102816457
    },
    {
        "istat":103007,
        "comune":"Bannio Anzino",
        "regione":"Piemonte",
        "provincia":"VB",
        "prefisso":324,
        "cod_fisco":"A610",
        "superficie":38.94,
        "num_residenti":506,
        "lng":8.14618751,
        "lat":45.98446545,
        "region_lat":45.0979469594,
        "region_lng":8.0435281102,
        "country_lat":43.3868261599,
        "country_lng":11.5102816457
    },
    {
        "istat":103008,
        "comune":"Baveno",
        "regione":"Piemonte",
        "provincia":"VB",
        "prefisso":323,
        "cod_fisco":"A725",
        "superficie":17.26,
        "num_residenti":4888,
        "lng":8.50483277,
        "lat":45.90891863,
        "region_lat":45.0979469594,
        "region_lng":8.0435281102,
        "country_lat":43.3868261599,
        "country_lng":11.5102816457
    },
    {
        "istat":103009,
        "comune":"Bee",
        "regione":"Piemonte",
        "provincia":"VB",
        "prefisso":323,
        "cod_fisco":"A733",
        "superficie":3.29,
        "num_residenti":741,
        "lng":8.58023117,
        "lat":45.96272502,
        "region_lat":45.0979469594,
        "region_lng":8.0435281102,
        "country_lat":43.3868261599,
        "country_lng":11.5102816457
    },
    {
        "istat":103010,
        "comune":"Belgirate",
        "regione":"Piemonte",
        "provincia":"VB",
        "prefisso":322,
        "cod_fisco":"A742",
        "superficie":8.4,
        "num_residenti":566,
        "lng":8.57158795,
        "lat":45.83835016,
        "region_lat":45.0979469594,
        "region_lng":8.0435281102,
        "country_lat":43.3868261599,
        "country_lng":11.5102816457
    },
    {
        "istat":103011,
        "comune":"Beura-Cardezza",
        "regione":"Piemonte",
        "provincia":"VB",
        "prefisso":324,
        "cod_fisco":"A834",
        "superficie":28.87,
        "num_residenti":1460,
        "lng":8.29933657,
        "lat":46.07888063,
        "region_lat":45.0979469594,
        "region_lng":8.0435281102,
        "country_lat":43.3868261599,
        "country_lng":11.5102816457
    },
    {
        "istat":103012,
        "comune":"Bognanco",
        "regione":"Piemonte",
        "provincia":"VB",
        "prefisso":324,
        "cod_fisco":"A925",
        "superficie":58.14,
        "num_residenti":213,
        "lng":8.20639541,
        "lat":46.1227807,
        "region_lat":45.0979469594,
        "region_lng":8.0435281102,
        "country_lat":43.3868261599,
        "country_lng":11.5102816457
    },
    {
        "istat":103013,
        "comune":"Brovello-Carpugnino",
        "regione":"Piemonte",
        "provincia":"VB",
        "prefisso":323,
        "cod_fisco":"B207",
        "superficie":8.34,
        "num_residenti":725,
        "lng":8.53319491,
        "lat":45.84274418,
        "region_lat":45.0979469594,
        "region_lng":8.0435281102,
        "country_lat":43.3868261599,
        "country_lng":11.5102816457
    },
    {
        "istat":103014,
        "comune":"Calasca-Castiglione",
        "regione":"Piemonte",
        "provincia":"VB",
        "prefisso":324,
        "cod_fisco":"B380",
        "superficie":57.64,
        "num_residenti":670,
        "lng":8.17024308,
        "lat":46.00382348,
        "region_lat":45.0979469594,
        "region_lng":8.0435281102,
        "country_lat":43.3868261599,
        "country_lng":11.5102816457
    },
    {
        "istat":103015,
        "comune":"Cambiasca",
        "regione":"Piemonte",
        "provincia":"VB",
        "prefisso":323,
        "cod_fisco":"B463",
        "superficie":3.92,
        "num_residenti":1666,
        "lng":8.54113201,
        "lat":45.96429341,
        "region_lat":45.0979469594,
        "region_lng":8.0435281102,
        "country_lat":43.3868261599,
        "country_lng":11.5102816457
    },
    {
        "istat":103016,
        "comune":"Cannero Riviera",
        "regione":"Piemonte",
        "provincia":"VB",
        "prefisso":323,
        "cod_fisco":"B610",
        "superficie":14.52,
        "num_residenti":1002,
        "lng":8.67933134,
        "lat":46.02206094,
        "region_lat":45.0979469594,
        "region_lng":8.0435281102,
        "country_lat":43.3868261599,
        "country_lng":11.5102816457
    },
    {
        "istat":103017,
        "comune":"Cannobio",
        "regione":"Piemonte",
        "provincia":"VB",
        "prefisso":323,
        "cod_fisco":"B615",
        "superficie":51.17,
        "num_residenti":5003,
        "lng":8.7001928,
        "lat":46.06172035,
        "region_lat":45.0979469594,
        "region_lng":8.0435281102,
        "country_lat":43.3868261599,
        "country_lng":11.5102816457
    },
    {
        "istat":103018,
        "comune":"Caprezzo",
        "regione":"Piemonte",
        "provincia":"VB",
        "prefisso":323,
        "cod_fisco":"B694",
        "superficie":7.31,
        "num_residenti":164,
        "lng":8.56128575,
        "lat":45.98065482,
        "region_lat":45.0979469594,
        "region_lng":8.0435281102,
        "country_lat":43.3868261599,
        "country_lng":11.5102816457
    },
    {
        "istat":103019,
        "comune":"Casale Corte Cerro",
        "regione":"Piemonte",
        "provincia":"VB",
        "prefisso":323,
        "cod_fisco":"B876",
        "superficie":12.09,
        "num_residenti":3441,
        "lng":8.41505526,
        "lat":45.91677748,
        "region_lat":45.0979469594,
        "region_lng":8.0435281102,
        "country_lat":43.3868261599,
        "country_lng":11.5102816457
    },
    {
        "istat":103020,
        "comune":"Cavaglio-Spoccia",
        "regione":"Piemonte",
        "provincia":"VB",
        "prefisso":323,
        "cod_fisco":"C367",
        "superficie":18.11,
        "num_residenti":254,
        "lng":8.64572023,
        "lat":46.0691621,
        "region_lat":45.0979469594,
        "region_lng":8.0435281102,
        "country_lat":43.3868261599,
        "country_lng":11.5102816457
    },
    {
        "istat":103021,
        "comune":"Ceppo Morelli",
        "regione":"Piemonte",
        "provincia":"VB",
        "prefisso":324,
        "cod_fisco":"C478",
        "superficie":39.97,
        "num_residenti":335,
        "lng":8.06670957,
        "lat":45.97136783,
        "region_lat":45.0979469594,
        "region_lng":8.0435281102,
        "country_lat":43.3868261599,
        "country_lng":11.5102816457
    },
    {
        "istat":103022,
        "comune":"Cesara",
        "regione":"Piemonte",
        "provincia":"VB",
        "prefisso":323,
        "cod_fisco":"C567",
        "superficie":11.24,
        "num_residenti":601,
        "lng":8.36593391,
        "lat":45.8350971,
        "region_lat":45.0979469594,
        "region_lng":8.0435281102,
        "country_lat":43.3868261599,
        "country_lng":11.5102816457
    },
    {
        "istat":103023,
        "comune":"Cossogno",
        "regione":"Piemonte",
        "provincia":"VB",
        "prefisso":323,
        "cod_fisco":"D099",
        "superficie":39.98,
        "num_residenti":620,
        "lng":8.51002439,
        "lat":45.96398123,
        "region_lat":45.0979469594,
        "region_lng":8.0435281102,
        "country_lat":43.3868261599,
        "country_lng":11.5102816457
    },
    {
        "istat":103024,
        "comune":"Craveggia",
        "regione":"Piemonte",
        "provincia":"VB",
        "prefisso":324,
        "cod_fisco":"D134",
        "superficie":36.47,
        "num_residenti":715,
        "lng":8.48978584,
        "lat":46.14063555,
        "region_lat":45.0979469594,
        "region_lng":8.0435281102,
        "country_lat":43.3868261599,
        "country_lng":11.5102816457
    },
    {
        "istat":103025,
        "comune":"Crevoladossola",
        "regione":"Piemonte",
        "provincia":"VB",
        "prefisso":324,
        "cod_fisco":"D168",
        "superficie":39.71,
        "num_residenti":4716,
        "lng":8.30357753,
        "lat":46.15604302,
        "region_lat":45.0979469594,
        "region_lng":8.0435281102,
        "country_lat":43.3868261599,
        "country_lng":11.5102816457
    },
    {
        "istat":103026,
        "comune":"Crodo",
        "regione":"Piemonte",
        "provincia":"VB",
        "prefisso":324,
        "cod_fisco":"D177",
        "superficie":61.66,
        "num_residenti":1458,
        "lng":8.3234115,
        "lat":46.22345888,
        "region_lat":45.0979469594,
        "region_lng":8.0435281102,
        "country_lat":43.3868261599,
        "country_lng":11.5102816457
    },
    {
        "istat":103027,
        "comune":"Cursolo-Orasso",
        "regione":"Piemonte",
        "provincia":"VB",
        "prefisso":323,
        "cod_fisco":"D225",
        "superficie":20.99,
        "num_residenti":105,
        "lng":8.56659126,
        "lat":46.09784122,
        "region_lat":45.0979469594,
        "region_lng":8.0435281102,
        "country_lat":43.3868261599,
        "country_lng":11.5102816457
    },
    {
        "istat":103028,
        "comune":"Domodossola",
        "regione":"Piemonte",
        "provincia":"VB",
        "prefisso":324,
        "cod_fisco":"D332",
        "superficie":36.85,
        "num_residenti":18306,
        "lng":8.29204242,
        "lat":46.11529474,
        "region_lat":45.0979469594,
        "region_lng":8.0435281102,
        "country_lat":43.3868261599,
        "country_lng":11.5102816457
    },
    {
        "istat":103029,
        "comune":"Druogno",
        "regione":"Piemonte",
        "provincia":"VB",
        "prefisso":324,
        "cod_fisco":"D374",
        "superficie":29.03,
        "num_residenti":994,
        "lng":8.43180731,
        "lat":46.13534934,
        "region_lat":45.0979469594,
        "region_lng":8.0435281102,
        "country_lat":43.3868261599,
        "country_lng":11.5102816457
    },
    {
        "istat":103030,
        "comune":"Falmenta",
        "regione":"Piemonte",
        "provincia":"VB",
        "prefisso":323,
        "cod_fisco":"D481",
        "superficie":16.18,
        "num_residenti":149,
        "lng":8.59046809,
        "lat":46.07185915,
        "region_lat":45.0979469594,
        "region_lng":8.0435281102,
        "country_lat":43.3868261599,
        "country_lng":11.5102816457
    },
    {
        "istat":103031,
        "comune":"Formazza",
        "regione":"Piemonte",
        "provincia":"VB",
        "prefisso":324,
        "cod_fisco":"D706",
        "superficie":130.48,
        "num_residenti":446,
        "lng":8.42672956,
        "lat":46.37672806,
        "region_lat":45.0979469594,
        "region_lng":8.0435281102,
        "country_lat":43.3868261599,
        "country_lng":11.5102816457
    },
    {
        "istat":103032,
        "comune":"Germagno",
        "regione":"Piemonte",
        "provincia":"VB",
        "prefisso":323,
        "cod_fisco":"D984",
        "superficie":2.99,
        "num_residenti":187,
        "lng":8.38796347,
        "lat":45.8924751,
        "region_lat":45.0979469594,
        "region_lng":8.0435281102,
        "country_lat":43.3868261599,
        "country_lng":11.5102816457
    },
    {
        "istat":103033,
        "comune":"Ghiffa",
        "regione":"Piemonte",
        "provincia":"VB",
        "prefisso":323,
        "cod_fisco":"E003",
        "superficie":14.06,
        "num_residenti":2383,
        "lng":8.61707384,
        "lat":45.95635016,
        "region_lat":45.0979469594,
        "region_lng":8.0435281102,
        "country_lat":43.3868261599,
        "country_lng":11.5102816457
    },
    {
        "istat":103034,
        "comune":"Gignese",
        "regione":"Piemonte",
        "provincia":"VB",
        "prefisso":323,
        "cod_fisco":"E028",
        "superficie":14.91,
        "num_residenti":956,
        "lng":8.50989111,
        "lat":45.86057481,
        "region_lat":45.0979469594,
        "region_lng":8.0435281102,
        "country_lat":43.3868261599,
        "country_lng":11.5102816457
    },
    {
        "istat":103035,
        "comune":"Gravellona Toce",
        "regione":"Piemonte",
        "provincia":"VB",
        "prefisso":323,
        "cod_fisco":"E153",
        "superficie":14.72,
        "num_residenti":7824,
        "lng":8.43142163,
        "lat":45.92758971,
        "region_lat":45.0979469594,
        "region_lng":8.0435281102,
        "country_lat":43.3868261599,
        "country_lng":11.5102816457
    },
    {
        "istat":103036,
        "comune":"Gurro",
        "regione":"Piemonte",
        "provincia":"VB",
        "prefisso":323,
        "cod_fisco":"E269",
        "superficie":13.24,
        "num_residenti":237,
        "lng":8.57011459,
        "lat":46.0859594,
        "region_lat":45.0979469594,
        "region_lng":8.0435281102,
        "country_lat":43.3868261599,
        "country_lng":11.5102816457
    },
    {
        "istat":103037,
        "comune":"Intragna",
        "regione":"Piemonte",
        "provincia":"VB",
        "prefisso":323,
        "cod_fisco":"E304",
        "superficie":9.93,
        "num_residenti":106,
        "lng":8.57634414,
        "lat":45.99529796,
        "region_lat":45.0979469594,
        "region_lng":8.0435281102,
        "country_lat":43.3868261599,
        "country_lng":11.5102816457
    },
    {
        "istat":103038,
        "comune":"Loreglia",
        "regione":"Piemonte",
        "provincia":"VB",
        "prefisso":323,
        "cod_fisco":"E685",
        "superficie":9.32,
        "num_residenti":254,
        "lng":8.37102962,
        "lat":45.90636433,
        "region_lat":45.0979469594,
        "region_lng":8.0435281102,
        "country_lat":43.3868261599,
        "country_lng":11.5102816457
    },
    {
        "istat":103039,
        "comune":"Macugnaga",
        "regione":"Piemonte",
        "provincia":"VB",
        "prefisso":324,
        "cod_fisco":"E790",
        "superficie":99.38,
        "num_residenti":586,
        "lng":7.96781758,
        "lat":45.96863285,
        "region_lat":45.0979469594,
        "region_lng":8.0435281102,
        "country_lat":43.3868261599,
        "country_lng":11.5102816457
    },
    {
        "istat":103040,
        "comune":"Madonna del Sasso",
        "regione":"Piemonte",
        "provincia":"VB",
        "prefisso":322,
        "cod_fisco":"E795",
        "superficie":15.25,
        "num_residenti":389,
        "lng":8.368138,
        "lat":45.7923455,
        "region_lat":45.0979469594,
        "region_lng":8.0435281102,
        "country_lat":43.3868261599,
        "country_lng":11.5102816457
    },
    {
        "istat":103041,
        "comune":"Malesco",
        "regione":"Piemonte",
        "provincia":"VB",
        "prefisso":324,
        "cod_fisco":"E853",
        "superficie":43.21,
        "num_residenti":1464,
        "lng":8.50035882,
        "lat":46.1266524,
        "region_lat":45.0979469594,
        "region_lng":8.0435281102,
        "country_lat":43.3868261599,
        "country_lng":11.5102816457
    },
    {
        "istat":103042,
        "comune":"Masera",
        "regione":"Piemonte",
        "provincia":"VB",
        "prefisso":324,
        "cod_fisco":"F010",
        "superficie":20.06,
        "num_residenti":1542,
        "lng":8.32647658,
        "lat":46.13697091,
        "region_lat":45.0979469594,
        "region_lng":8.0435281102,
        "country_lat":43.3868261599,
        "country_lng":11.5102816457
    },
    {
        "istat":103043,
        "comune":"Massiola",
        "regione":"Piemonte",
        "provincia":"VB",
        "prefisso":323,
        "cod_fisco":"F048",
        "superficie":8.06,
        "num_residenti":129,
        "lng":8.31968051,
        "lat":45.91223892,
        "region_lat":45.0979469594,
        "region_lng":8.0435281102,
        "country_lat":43.3868261599,
        "country_lng":11.5102816457
    },
    {
        "istat":103044,
        "comune":"Mergozzo",
        "regione":"Piemonte",
        "provincia":"VB",
        "prefisso":323,
        "cod_fisco":"F146",
        "superficie":27.32,
        "num_residenti":2211,
        "lng":8.45293267,
        "lat":45.9609814,
        "region_lat":45.0979469594,
        "region_lng":8.0435281102,
        "country_lat":43.3868261599,
        "country_lng":11.5102816457
    },
    {
        "istat":103045,
        "comune":"Miazzina",
        "regione":"Piemonte",
        "provincia":"VB",
        "prefisso":323,
        "cod_fisco":"F192",
        "superficie":21.62,
        "num_residenti":390,
        "lng":8.52391779,
        "lat":45.97521934,
        "region_lat":45.0979469594,
        "region_lng":8.0435281102,
        "country_lat":43.3868261599,
        "country_lng":11.5102816457
    },
    {
        "istat":103046,
        "comune":"Montecrestese",
        "regione":"Piemonte",
        "provincia":"VB",
        "prefisso":324,
        "cod_fisco":"F483",
        "superficie":86.45,
        "num_residenti":1248,
        "lng":8.32648378,
        "lat":46.1654786,
        "region_lat":45.0979469594,
        "region_lng":8.0435281102,
        "country_lat":43.3868261599,
        "country_lng":11.5102816457
    },
    {
        "istat":103047,
        "comune":"Montescheno",
        "regione":"Piemonte",
        "provincia":"VB",
        "prefisso":324,
        "cod_fisco":"F639",
        "superficie":22.53,
        "num_residenti":427,
        "lng":8.23290672,
        "lat":46.06660256,
        "region_lat":45.0979469594,
        "region_lng":8.0435281102,
        "country_lat":43.3868261599,
        "country_lng":11.5102816457
    },
    {
        "istat":103048,
        "comune":"Nonio",
        "regione":"Piemonte",
        "provincia":"VB",
        "prefisso":323,
        "cod_fisco":"F932",
        "superficie":10.13,
        "num_residenti":880,
        "lng":8.3767952,
        "lat":45.84505972,
        "region_lat":45.0979469594,
        "region_lng":8.0435281102,
        "country_lat":43.3868261599,
        "country_lng":11.5102816457
    },
    {
        "istat":103049,
        "comune":"Oggebbio",
        "regione":"Piemonte",
        "provincia":"VB",
        "prefisso":323,
        "cod_fisco":"G007",
        "superficie":20.18,
        "num_residenti":893,
        "lng":8.65287539,
        "lat":45.99691478,
        "region_lat":45.0979469594,
        "region_lng":8.0435281102,
        "country_lat":43.3868261599,
        "country_lng":11.5102816457
    },
    {
        "istat":103050,
        "comune":"Omegna",
        "regione":"Piemonte",
        "provincia":"VB",
        "prefisso":323,
        "cod_fisco":"G062",
        "superficie":30.78,
        "num_residenti":15636,
        "lng":8.40892832,
        "lat":45.87561647,
        "region_lat":45.0979469594,
        "region_lng":8.0435281102,
        "country_lat":43.3868261599,
        "country_lng":11.5102816457
    },
    {
        "istat":103051,
        "comune":"Ornavasso",
        "regione":"Piemonte",
        "provincia":"VB",
        "prefisso":323,
        "cod_fisco":"G117",
        "superficie":25.84,
        "num_residenti":3430,
        "lng":8.4157735,
        "lat":45.96919318,
        "region_lat":45.0979469594,
        "region_lng":8.0435281102,
        "country_lat":43.3868261599,
        "country_lng":11.5102816457
    },